{
  "nodes": [
    { "id": "core-sw-ot",  "label": "CORE-SW-ÜBERTAGE", "type": "switch", "status": "ok",
      "x":  0, "y": 52, "z":  0,
      "lat": 51.5062, "lon": 9.3327, "floor": "ÜBERTAGE" },

    { "id": "core-sw-s1",  "label": "CORE-SW-SOHLE1",   "type": "switch", "status": "ok",
      "x":  0, "y": 17, "z":  0,
      "lat": 51.5050, "lon": 9.3350, "floor": "SOHLE 1" },
    { "id": "dist-sw-01",  "label": "DIST-SW-ALPHA",     "type": "switch", "status": "ok",
      "x": -32, "y": 17, "z": -12,
      "lat": 51.4750, "lon": 9.2900, "floor": "SOHLE 1" },
    { "id": "dist-sw-02",  "label": "DIST-SW-BETA",      "type": "switch", "status": "warning",
      "x": 32, "y": 17, "z": -12,
      "lat": 51.5350, "lon": 9.3800, "floor": "SOHLE 1" },
    { "id": "dist-sw-03",  "label": "DIST-SW-GAMMA",     "type": "switch", "status": "ok",
      "x":  0, "y": 17, "z": 35,
      "lat": 51.4900, "lon": 9.3900, "floor": "SOHLE 1" },

    { "id": "core-sw-s2",  "label": "CORE-SW-SOHLE2",   "type": "switch", "status": "ok",
      "x":  0, "y": -18, "z":  0,
      "lat": 51.5062, "lon": 9.3327, "floor": "SOHLE 2" },
    { "id": "web-01",      "label": "web-server-01",     "type": "host",   "status": "ok",
      "x": -38, "y": -18, "z": -22,
      "lat": 51.4400, "lon": 9.1500, "floor": "SOHLE 2" },
    { "id": "web-02",      "label": "web-server-02",     "type": "host",   "status": "critical",
      "x": -18, "y": -18, "z": -32,
      "lat": 51.4300, "lon": 9.1800, "floor": "SOHLE 2" },
    { "id": "db-primary",  "label": "db-primary",        "type": "host",   "status": "ok",
      "x": 18, "y": -18, "z": -32,
      "lat": 51.5650, "lon": 9.4700, "floor": "SOHLE 2" },
    { "id": "db-replica",  "label": "db-replica",        "type": "host",   "status": "warning",
      "x": 38, "y": -18, "z": -22,
      "lat": 51.5700, "lon": 9.4900, "floor": "SOHLE 2" },

    { "id": "core-sw-s3",  "label": "CORE-SW-SOHLE3",   "type": "switch", "status": "ok",
      "x":  0, "y": -52, "z":  0,
      "lat": 51.5062, "lon": 9.3327, "floor": "SOHLE 3" },
    { "id": "mon-01",      "label": "monitoring-01",     "type": "host",   "status": "ok",
      "x": -8, "y": -52, "z": 36,
      "lat": 51.4550, "lon": 9.2100, "floor": "SOHLE 3" },
    { "id": "fw-01",       "label": "firewall-01",       "type": "host",   "status": "down",
      "x": 30, "y": -52, "z": 22,
      "lat": 51.4450, "lon": 9.2300, "floor": "SOHLE 3" },
    { "id": "backup-01",   "label": "backup-srv-01",     "type": "host",   "status": "ok",
      "x": -32, "y": -52, "z":  8,
      "lat": 51.5500, "lon": 9.4450, "floor": "SOHLE 3" },
    { "id": "ldap-01",     "label": "ldap-server",       "type": "host",   "status": "unknown",
      "x": 28, "y": -52, "z": -20,
      "lat": 51.5400, "lon": 9.4200, "floor": "SOHLE 3" },

    { "id": "ap-ot-01", "label": "AP-ÜBERTAGE-01", "type": "accesspoint", "status": "ok",
      "wifiDbm": -45, "x": -20, "y": 52, "z": 18,
      "lat": 51.5040, "lon": 9.3290, "floor": "ÜBERTAGE" },
    { "id": "ap-ot-02", "label": "AP-ÜBERTAGE-02", "type": "accesspoint", "status": "warning",
      "wifiDbm": -62, "x": 22, "y": 52, "z": -15,
      "lat": 51.5080, "lon": 9.3370, "floor": "ÜBERTAGE" },
    { "id": "ap-s1-01", "label": "AP-SOHLE1-01",  "type": "accesspoint", "status": "ok",
      "wifiDbm": -38, "x": -40, "y": 17, "z": 20,
      "lat": 51.4720, "lon": 9.2850, "floor": "SOHLE 1" },
    { "id": "ap-s1-02", "label": "AP-SOHLE1-02",  "type": "accesspoint", "status": "critical",
      "wifiDbm": -78, "x": 35, "y": 17, "z": 15,
      "lat": 51.5380, "lon": 9.3850, "floor": "SOHLE 1" }
  ],
  "links": [
    { "source": "core-sw-ot", "target": "core-sw-s1", "status": "ok"      },
    { "source": "core-sw-s1", "target": "core-sw-s2", "status": "ok"      },
    { "source": "core-sw-s2", "target": "core-sw-s3", "status": "warning" },

    { "source": "core-sw-s1", "target": "dist-sw-01", "status": "ok"      },
    { "source": "core-sw-s1", "target": "dist-sw-02", "status": "warning" },
    { "source": "core-sw-s1", "target": "dist-sw-03", "status": "ok"      },

    { "source": "core-sw-s2", "target": "web-01",     "status": "ok"       },
    { "source": "core-sw-s2", "target": "web-02",     "status": "critical" },
    { "source": "core-sw-s2", "target": "db-primary", "status": "ok"       },
    { "source": "core-sw-s2", "target": "db-replica", "status": "warning"  },

    { "source": "core-sw-s3", "target": "mon-01",     "status": "ok"      },
    { "source": "core-sw-s3", "target": "fw-01",      "status": "down"    },
    { "source": "core-sw-s3", "target": "backup-01",  "status": "ok"      },
    { "source": "core-sw-s3", "target": "ldap-01",    "status": "unknown" }
  ]
}
